City_ID,City,Country,Date,Lat,Lng,Max Temp,Humidity,Cloudiness,Wind Speed
0,Rikitea,PF,2022-03-10 11:19:10,-23.1203,-134.9692,77.95,71,77,7.81
1,Saint-Francois,FR,2022-03-10 11:19:34,46.4154,3.9054,56.48,61,0,3.44
2,Chokurdakh,RU,2022-03-10 11:12:28,70.6333,147.9167,-9.24,97,100,5.88
3,Butaritari,KI,2022-03-10 11:19:15,3.0707,172.7902,80.01,82,94,14.41
4,Hermanus,ZA,2022-03-10 11:19:35,-34.4187,19.2345,80.8,60,10,16.73
5,Dikson,RU,2022-03-10 11:19:36,73.5069,80.5464,-21.08,98,91,8.63
6,Saldanha,ZA,2022-03-10 11:16:25,-33.0117,17.9442,68.94,74,11,17.09
7,Barrow,US,2022-03-10 11:19:36,71.2906,-156.7887,-16.58,83,0,9.22
8,Tornio,FI,2022-03-10 11:19:37,65.8481,24.1466,32.02,86,98,20.4
9,Calama,CL,2022-03-10 11:15:57,-22.4667,-68.9333,55.89,67,75,3.44
10,Linxia,CN,2022-03-10 11:19:37,35.6003,103.2064,61.68,27,1,5.28
11,Hami,CN,2022-03-10 11:19:38,42.8,93.45,58.75,23,19,5.95
12,Mogadishu,SO,2022-03-10 11:15:01,2.0371,45.3438,84.42,62,100,22.82
13,Fairbanks,US,2022-03-10 11:19:38,64.8378,-147.7164,22.96,68,100,9.22
14,Dutlwe,BW,2022-03-10 11:19:39,-23.9833,23.9,83.68,37,16,9.1
15,Jamestown,US,2022-03-10 11:17:32,42.097,-79.2353,26.85,69,0,3.44
16,Majholi,IN,2022-03-10 11:19:40,23.5,79.9167,88.84,15,3,9.08
17,Mataura,NZ,2022-03-10 11:19:40,-46.1927,168.8643,60.48,98,56,3.27
18,Saskylakh,RU,2022-03-10 11:19:41,71.9167,114.0833,-29.97,100,71,1.97
19,Carnarvon,AU,2022-03-10 11:19:13,-24.8667,113.6333,84.27,61,0,8.05
20,Tasiilaq,GL,2022-03-10 11:19:17,65.6145,-37.6368,24.96,81,100,18.43
21,Seoul,KR,2022-03-10 11:19:41,37.5683,126.9778,49.48,65,0,1.14
22,Puro,PH,2022-03-10 11:19:42,12.4841,123.3827,77.56,88,100,9.15
23,Punta Arenas,CL,2022-03-10 11:19:23,-53.15,-70.9167,46.51,61,20,8.05
24,Saint-Philippe,RE,2022-03-10 11:19:42,-21.3585,55.7679,87.39,83,43,8.14
25,Nikolskoye,RU,2022-03-10 11:13:36,59.7035,30.7861,30.87,69,15,6.78
26,Hoquiam,US,2022-03-10 11:18:32,46.9809,-123.8893,36.0,75,0,4.61
27,Bethel,US,2022-03-10 11:12:21,41.3712,-73.414,33.04,92,99,1.68
28,Ushuaia,AR,2022-03-10 11:19:11,-54.8,-68.3,44.26,70,40,4.61
29,Vaini,TO,2022-03-10 11:19:20,-21.2,-175.2,77.16,88,75,4.61
30,Port Alfred,ZA,2022-03-10 11:19:44,-33.5906,26.891,78.91,70,64,17.47
31,Qaanaaq,GL,2022-03-10 11:19:44,77.484,-69.3632,-8.41,50,49,7.2
32,Springbok,ZA,2022-03-10 11:19:45,-29.6643,17.8865,91.98,24,20,10.36
33,Sechura,PE,2022-03-10 11:19:45,-5.5569,-80.8222,72.82,76,99,6.58
34,Altay,CN,2022-03-10 11:19:45,47.8667,88.1167,32.36,86,100,3.22
35,Yellowknife,CA,2022-03-10 11:19:46,62.456,-114.3525,-17.88,69,0,14.97
36,Avarua,CK,2022-03-10 11:19:46,-21.2078,-159.775,78.85,89,100,8.05
37,Codrington,AU,2022-03-10 11:19:47,-38.2667,141.9667,57.87,74,8,9.84
38,Touros,BR,2022-03-10 11:18:34,-5.1989,-35.4608,83.3,72,81,13.47
39,Zhangye,CN,2022-03-10 11:16:19,38.9342,100.4517,57.09,23,53,11.59
40,College,US,2022-03-10 11:09:49,64.8569,-147.8028,22.95,68,100,9.22
41,Ponta Do Sol,PT,2022-03-10 11:13:43,32.6667,-17.1,70.0,74,42,6.73
42,Alice Springs,AU,2022-03-10 11:19:38,-23.7,133.8833,77.22,21,0,6.91
43,Mahebourg,MU,2022-03-10 11:19:48,-20.4081,57.7,86.29,74,40,9.22
44,Pisco,PE,2022-03-10 11:19:49,-13.7,-76.2167,68.05,83,0,4.61
45,Nouadhibou,MR,2022-03-10 11:12:22,20.931,-17.0347,67.82,54,0,13.06
46,New Norfolk,AU,2022-03-10 11:19:16,-42.7826,147.0587,56.7,54,50,2.64
47,Puerto Ayora,EC,2022-03-10 11:20:49,-0.7393,-90.3518,73.54,99,14,1.01
48,Auray,FR,2022-03-10 11:20:50,47.6703,-2.9918,53.8,70,90,2.48
49,Omboue,GA,2022-03-10 11:20:50,-1.5746,9.2618,81.14,83,100,7.72
50,Esperance,AU,2022-03-10 11:11:08,-33.8667,121.9,68.76,69,98,17.29
51,Rocha,UY,2022-03-10 11:20:51,-34.4833,-54.3333,66.24,84,100,4.81
52,Mezen,RU,2022-03-10 11:20:51,65.8522,44.24,23.83,92,100,11.07
53,East London,ZA,2022-03-10 11:14:59,-33.0153,27.9116,79.74,69,0,21.85
54,Northam,GB,2022-03-10 11:16:27,51.0333,-4.2167,49.91,85,94,11.36
55,Villagarzon,CO,2022-03-10 11:20:52,1.0375,-76.6267,70.88,93,92,3.67
56,Busselton,AU,2022-03-10 11:20:52,-33.65,115.3333,85.08,46,31,10.13
57,Wawa,NG,2022-03-10 11:20:53,9.9022,4.4192,99.82,12,60,2.91
58,Roebourne,AU,2022-03-10 11:20:53,-20.7833,117.1333,88.39,55,2,13.51
59,Waipawa,NZ,2022-03-10 11:20:54,-41.4122,175.5153,55.67,88,0,7.05
60,Cidreira,BR,2022-03-10 11:20:54,-30.1811,-50.2056,75.04,88,97,5.86
61,Santa Cruz,BO,2022-03-10 11:20:55,-17.8,-63.1667,75.25,88,75,10.36
62,Shenzhen,CN,2022-03-10 11:20:55,22.5455,114.0683,73.08,75,9,7.9
63,Cherskiy,RU,2022-03-10 11:12:20,68.75,161.3,14.94,66,10,12.93
64,Ribeira Grande,PT,2022-03-10 11:13:39,38.5167,-28.7,59.4,63,40,29.93
65,Musenita,RO,2022-03-10 11:20:56,47.9667,26.0,33.08,66,100,12.55
66,Atuona,PF,2022-03-10 11:20:56,-9.8,-139.0333,78.21,77,61,18.12
67,Hobart,AU,2022-03-10 11:20:57,-42.8794,147.3294,57.06,68,75,11.5
68,Regina,CA,2022-03-10 11:20:00,50.4501,-104.6178,-0.4,79,75,10.36
69,Kodiak,US,2022-03-10 11:12:24,57.79,-152.4072,38.71,100,100,10.36
70,Hilo,US,2022-03-10 11:16:12,19.7297,-155.09,72.63,87,75,4.61
71,Nalut,LY,2022-03-10 11:20:58,30.3333,10.85,58.95,33,32,7.27
72,Paris,FR,2022-03-10 11:19:39,48.8534,2.3488,60.87,58,0,10.36
73,Bandarbeyla,SO,2022-03-10 11:20:59,9.4942,50.8122,80.62,58,82,12.84
74,Svetlogorsk,BY,2022-03-10 11:20:59,52.6333,29.7333,23.88,43,18,14.16
75,Saint-Pierre,RE,2022-03-10 11:16:13,-21.3393,55.4781,87.48,69,75,21.85
76,Doha,QA,2022-03-10 11:19:35,25.2867,51.5333,98.91,39,0,12.66
77,Port-Cartier,CA,2022-03-10 11:21:00,50.0334,-66.8654,16.75,98,100,2.33
78,Oranjestad,AW,2022-03-10 11:21:00,12.524,-70.027,78.75,78,20,16.11
79,Albany,US,2022-03-10 11:15:15,42.6001,-73.9662,28.98,92,56,3.91
80,Jieshi,CN,2022-03-10 11:21:01,22.8134,115.8257,71.94,73,3,10.38
81,Amstelveen,NL,2022-03-10 11:21:01,52.3008,4.8639,57.02,53,0,9.22
82,Kapaa,US,2022-03-10 11:21:02,22.0752,-159.319,70.12,72,40,5.75
83,Grindavik,IS,2022-03-10 11:21:02,63.8424,-22.4338,43.27,93,75,18.41
84,Constitucion,CL,2022-03-10 11:21:03,-35.3333,-72.4167,54.82,61,0,6.96
85,Demba,CD,2022-03-10 11:21:03,-5.51,22.2667,88.56,46,100,4.85
86,Honningsvag,NO,2022-03-10 11:21:04,70.9821,25.9704,33.55,75,0,32.21
87,Kamaishi,JP,2022-03-10 11:14:53,39.2667,141.8833,38.14,76,6,4.74
88,Marsh Harbour,BS,2022-03-10 11:16:30,26.5412,-77.0636,74.07,85,1,14.83
89,Katsuura,JP,2022-03-10 11:22:05,35.1333,140.3,50.13,60,42,4.03
90,Surt,LY,2022-03-10 11:22:05,31.2089,16.5887,57.29,46,12,15.12
91,Barillas,GT,2022-03-10 11:18:13,15.8036,-91.3158,66.54,90,75,3.06
92,Ambon,ID,2022-03-10 11:22:06,-3.6954,128.1814,80.74,94,40,5.75
93,Kahului,US,2022-03-10 11:22:06,20.8947,-156.47,77.85,78,0,7.0
94,Trinidad,BO,2022-03-10 11:22:06,-14.8333,-64.9,76.98,94,75,3.44
95,Bireun,ID,2022-03-10 11:22:07,5.203,96.7009,82.36,76,78,1.72
96,Mitha Tiwana,PK,2022-03-10 11:22:07,32.2486,72.1108,85.05,21,30,8.52
97,Upernavik,GL,2022-03-10 11:22:08,72.7868,-56.1549,-7.44,95,100,7.05
98,Isangel,VU,2022-03-10 11:12:32,-19.55,169.2667,78.82,81,34,6.71
99,Maragogi,BR,2022-03-10 11:16:12,-9.0122,-35.2225,82.45,67,65,9.4
100,Marburg,DE,2022-03-10 11:22:09,50.8167,8.7667,55.6,44,0,6.89
101,Manta,EC,2022-03-10 11:20:52,-0.95,-80.7333,76.78,83,75,4.61
102,Okha,RU,2022-03-10 11:20:27,53.5739,142.9478,3.4,99,59,5.93
103,Camacupa,AO,2022-03-10 11:22:10,-12.0167,17.4833,78.75,60,99,2.17
104,Mumbwa,ZM,2022-03-10 11:22:10,-14.9783,27.0619,75.27,74,72,6.71
105,Senno,RU,2022-03-10 11:22:11,59.5336,33.9167,23.49,78,91,5.39
106,Ilave,PE,2022-03-10 11:22:11,-16.0833,-69.6667,44.83,86,100,2.15
107,Lata,PT,2022-03-10 11:22:11,40.1629,-8.3327,53.51,87,100,7.31
108,Nan,TH,2022-03-10 11:22:12,18.8333,100.6667,93.22,43,20,2.3
109,Boa Vista,BR,2022-03-10 11:22:12,2.8197,-60.6733,75.18,88,75,4.61
110,Cape Town,ZA,2022-03-10 11:19:21,-33.9258,18.4232,82.11,44,0,18.41
111,Houma,US,2022-03-10 11:19:52,29.5958,-90.7195,54.0,95,99,6.87
112,Sao Joao Da Barra,BR,2022-03-10 11:22:13,-21.6403,-41.0511,80.69,82,22,7.36
113,Matamoros,MX,2022-03-10 11:22:14,25.5333,-103.25,57.31,26,0,0.0
114,Humberto De Campos,BR,2022-03-10 11:22:14,-2.5983,-43.4611,79.36,89,100,6.06
115,Grand Gaube,MU,2022-03-10 11:22:15,-20.0064,57.6608,86.4,73,9,8.99
116,Te Anau,NZ,2022-03-10 11:17:47,-45.4167,167.7167,55.09,89,16,2.71
117,Cedral,MX,2022-03-10 11:22:16,23.8,-100.7333,52.56,23,61,5.57
118,Norwich,GB,2022-03-10 11:18:24,52.6278,1.2983,59.32,61,0,13.0
119,Saint-Augustin,CA,2022-03-10 11:22:16,51.226,-58.6502,3.96,98,94,3.71
120,Cabuyaro,CO,2022-03-10 11:22:17,4.2817,-72.794,75.36,66,73,2.37
121,Tuxpan,MX,2022-03-10 11:22:17,19.55,-103.4,52.7,47,58,2.33
122,Lucea,JM,2022-03-10 11:22:17,18.451,-78.1736,73.85,80,0,5.86
123,Aliganj,IN,2022-03-10 11:22:18,27.5,79.1833,88.77,21,22,11.65
124,Narsaq,GL,2022-03-10 11:22:18,60.9167,-46.05,5.22,68,0,5.75
125,Padang,ID,2022-03-10 11:22:19,-0.9492,100.3543,86.05,78,84,3.65
126,Tual,ID,2022-03-10 11:22:19,-5.6667,132.75,83.93,69,82,2.89
127,Chokwe,MZ,2022-03-10 11:22:20,-24.5333,32.9833,92.7,35,52,6.2
128,Mar Del Plata,AR,2022-03-10 11:19:45,-38.0023,-57.5575,63.09,74,0,0.0
129,Leningradskiy,RU,2022-03-10 11:15:09,69.3833,178.4167,7.02,78,7,9.13
130,Honiara,SB,2022-03-10 11:21:30,-9.4333,159.95,79.38,85,95,1.05
131,Nhulunbuy,AU,2022-03-10 11:17:32,-12.2333,136.7667,84.81,74,92,4.61
132,Roald,NO,2022-03-10 11:23:21,62.5833,6.1333,52.32,53,75,16.11
133,Victoria,HK,2022-03-10 11:20:04,22.2855,114.1577,73.18,63,6,11.01
134,Torbay,CA,2022-03-10 11:23:21,47.6666,-52.7314,24.58,84,100,4.61
135,Castro,BR,2022-03-10 11:23:22,-24.7911,-50.0119,66.43,95,99,2.91
136,Georgetown,MY,2022-03-10 11:17:43,5.4112,100.3354,85.95,71,20,4.61
137,Daye,CN,2022-03-10 11:23:22,30.0833,114.95,71.17,54,56,3.24
138,Axim,GH,2022-03-10 11:23:23,4.8699,-2.2405,86.65,68,100,8.34
139,Male,MV,2022-03-10 11:23:23,4.1748,73.5089,85.95,70,40,8.05
140,Kaitangata,NZ,2022-03-10 11:14:51,-46.2817,169.8464,56.23,98,87,6.64
141,Tuktoyaktuk,CA,2022-03-10 11:23:24,69.4541,-133.0374,-17.46,99,100,5.53
142,Hithadhoo,MV,2022-03-10 11:23:25,-0.6,73.0833,82.94,61,19,4.56
143,Shieli,KZ,2022-03-10 11:23:25,44.1667,66.75,54.52,35,100,9.01
144,Buzmeyin,TM,2022-03-10 11:23:25,38.0507,58.2056,67.73,49,75,4.61
145,Gat,IL,2022-03-10 11:16:21,31.61,34.7642,63.81,42,24,20.69
146,Slonim,BY,2022-03-10 11:23:26,53.0867,25.3219,28.31,32,1,10.8
147,Jimo,CN,2022-03-10 11:23:26,36.3897,120.4622,47.98,93,40,8.95
148,Xudat,AZ,2022-03-10 11:23:27,41.631,48.681,39.72,77,80,17.81
149,Port Elizabeth,ZA,2022-03-10 11:21:11,-33.918,25.5701,80.1,69,20,16.11
150,Khatanga,RU,2022-03-10 11:19:10,71.9667,102.5,-8.52,98,99,5.46
151,Kavieng,PG,2022-03-10 11:23:28,-2.5744,150.7967,82.13,74,90,5.46
152,Norman Wells,CA,2022-03-10 11:16:23,65.282,-126.8329,-20.16,76,75,3.44
153,Bielsk Podlaski,PL,2022-03-10 11:23:28,52.7651,23.1865,29.25,38,3,11.45
154,Doka,SD,2022-03-10 11:23:29,13.5167,35.7667,106.16,9,57,10.45
155,Ust-Tsilma,RU,2022-03-10 11:23:29,65.441,52.1498,15.73,83,78,9.19
156,Lebu,CL,2022-03-10 11:16:23,-37.6167,-73.65,54.64,79,2,19.95
157,Ippy,CF,2022-03-10 11:23:30,6.2679,21.2247,104.11,19,84,4.9
158,Gibraltar,GI,2022-03-10 11:23:30,36.1447,-5.3526,60.75,77,75,11.5
159,Pompton Lakes,US,2022-03-10 11:21:11,41.0054,-74.2907,33.53,95,0,1.01
160,Mabaruma,GY,2022-03-10 11:23:31,8.2,-59.7833,71.71,99,100,2.17
161,Thompson,CA,2022-03-10 11:17:35,55.7435,-97.8558,-9.24,77,100,3.44
162,Clyde River,CA,2022-03-10 11:23:31,70.4692,-68.5914,-18.17,76,0,5.75
163,Sinnamary,GF,2022-03-10 11:23:32,5.3833,-52.95,77.65,85,99,10.85
164,Sisimiut,GL,2022-03-10 11:23:32,66.9395,-53.6735,-8.91,98,98,3.33
165,Batemans Bay,AU,2022-03-10 11:23:33,-35.7167,150.1833,61.11,76,80,7.25
166,Taoudenni,ML,2022-03-10 11:17:47,22.6783,-3.9836,80.82,12,62,18.19
167,Camacha,PT,2022-03-10 11:13:47,33.0833,-16.3333,66.52,68,20,10.36
168,Apatity,RU,2022-03-10 11:23:33,67.5641,33.4031,24.84,93,99,8.16
169,Bengkulu,ID,2022-03-10 11:23:34,-3.8004,102.2655,79.83,82,99,3.22
170,Kirksville,US,2022-03-10 11:21:31,40.1948,-92.5833,21.15,74,100,12.66
171,Izmaylovo,RU,2022-03-10 11:23:34,53.7211,47.2458,16.9,88,100,15.79
172,Campoverde,PE,2022-03-10 11:23:35,-8.4753,-74.8058,73.09,99,99,1.59
173,Provideniya,RU,2022-03-10 11:23:35,64.3833,-173.3,11.53,66,0,14.7
174,Dalvik,IS,2022-03-10 11:23:35,65.9702,-18.5286,35.53,78,100,4.0
175,Bredasdorp,ZA,2022-03-10 11:23:36,-34.5322,20.0403,74.52,57,62,12.66
176,Srandakan,ID,2022-03-10 11:23:36,-7.9386,110.2506,79.2,85,67,3.8
177,Bluff,NZ,2022-03-10 11:19:13,-46.6,168.3333,60.8,94,53,1.14
178,Kaseda,JP,2022-03-10 11:24:37,31.4167,130.3167,57.78,61,82,4.34
179,Idil,TR,2022-03-10 11:24:37,37.3411,41.8895,53.53,62,75,4.61
180,Vaitape,PF,2022-03-10 11:24:38,-16.5167,-151.75,80.65,72,100,12.73
181,Ketchikan,US,2022-03-10 11:24:38,55.3422,-131.6461,39.18,75,100,6.91
182,Kolda,SN,2022-03-10 11:24:38,12.8833,-14.95,91.71,21,0,6.91
183,Turukhansk,RU,2022-03-10 11:24:39,65.8167,87.9833,-13.49,95,100,2.35
184,Kamenka,RU,2022-03-10 11:24:39,51.3223,42.7678,22.71,93,100,17.36
185,Ocos,GT,2022-03-10 11:17:46,14.5094,-92.1933,76.24,74,8,6.96
186,La Ronge,CA,2022-03-10 11:24:40,55.1001,-105.2842,10.65,79,100,18.41
187,Alofi,NU,2022-03-10 11:24:40,-19.0595,-169.9187,76.89,88,100,4.61
188,Simao,CN,2022-03-10 11:24:41,22.7886,100.9748,77.86,24,0,4.27
189,Mao,ES,2022-03-10 11:24:41,39.8885,4.2658,57.76,62,20,10.36
190,Mayumba,GA,2022-03-10 11:24:42,-3.432,10.6554,82.69,76,100,8.19
191,Karratha,AU,2022-03-10 11:24:42,-20.7377,116.8463,87.76,57,2,12.5
192,Carauari,BR,2022-03-10 11:24:42,-4.8828,-66.8958,70.86,96,99,2.06
193,Presidencia Roque Saenz Pena,AR,2022-03-10 11:24:43,-26.7852,-60.4388,71.65,100,100,14.97
194,Abu Dhabi,AE,2022-03-10 11:20:10,24.4667,54.3667,100.42,12,0,6.91
195,Bintulu,MY,2022-03-10 11:24:43,3.1667,113.0333,82.81,83,20,4.61
196,Kieta,PG,2022-03-10 11:17:44,-6.2167,155.6333,80.28,80,80,1.36
197,Goundam,ML,2022-03-10 11:24:44,16.4145,-3.6708,88.29,7,20,10.98
198,Bom Jardim,BR,2022-03-10 11:24:44,-7.7958,-35.5872,79.68,71,89,11.65
199,San Quintin,MX,2022-03-10 11:16:24,30.4833,-115.95,53.96,83,0,4.65
200,Taquaritinga Do Norte,BR,2022-03-10 11:24:45,-7.9031,-36.0442,75.42,66,84,9.15
201,Lodja,CD,2022-03-10 11:24:45,-3.4833,23.4333,90.86,49,99,0.65
202,Ewa Beach,US,2022-03-10 11:24:46,21.3156,-158.0072,73.69,81,40,5.75
203,Benguela,AO,2022-03-10 11:24:46,-12.5763,13.4055,83.26,69,41,10.0
204,Bolshevik,BY,2022-03-10 11:24:47,54.0065,27.5692,24.42,55,8,10.89
205,Beyneu,KZ,2022-03-10 11:24:47,45.3167,55.2,45.63,82,100,18.43
206,Lompoc,US,2022-03-10 11:19:55,34.6391,-120.4579,52.12,84,100,21.0
207,Nuuk,GL,2022-03-10 11:22:21,64.1835,-51.7216,-10.12,93,93,6.15
208,Sioux Lookout,CA,2022-03-10 11:24:48,50.1001,-91.917,-11.13,77,40,5.75
209,Samarai,PG,2022-03-10 11:24:48,-10.6167,150.6667,82.26,79,100,10.47
210,Adrar,MR,2022-03-10 11:24:49,20.5022,-10.0711,78.85,10,0,18.59
211,Airai,TL,2022-03-10 11:24:49,-8.9266,125.4092,62.11,97,91,1.99
212,Taltal,CL,2022-03-10 11:24:50,-25.4,-70.4833,65.68,84,37,2.1
213,Port Hawkesbury,CA,2022-03-10 11:24:50,45.6169,-61.3485,30.18,88,100,3.44
214,Valparaiso,CL,2022-03-10 11:24:51,-33.0393,-71.6273,61.48,62,0,8.12
215,Belmonte,BR,2022-03-10 11:24:51,-15.8631,-38.8828,78.69,81,13,3.85
216,Lunglei,IN,2022-03-10 11:24:52,22.8833,92.7333,84.33,17,7,3.65
217,Porto Velho,BR,2022-03-10 11:24:52,-8.7619,-63.9039,75.25,94,75,1.14
218,Maningrida,AU,2022-03-10 11:24:53,-12.0667,134.2667,82.53,73,74,6.91
219,Slavyanka,RU,2022-03-10 11:24:53,42.8633,131.3847,35.87,97,91,3.58
220,Thinadhoo,MV,2022-03-10 11:24:53,0.5333,72.9333,82.9,62,5,5.03
221,Talnakh,RU,2022-03-10 11:24:54,69.4865,88.3972,-21.8,99,84,5.17
222,Babati,TZ,2022-03-10 11:24:54,-4.2167,35.75,86.74,32,79,6.35
223,Rincon,US,2022-03-10 11:17:40,32.296,-81.2354,64.85,94,100,8.05
224,Porto Novo,BJ,2022-03-10 11:25:55,6.4965,2.6036,92.64,54,98,10.47
225,Mehamn,NO,2022-03-10 11:25:55,71.0357,27.8492,33.75,69,0,26.46
226,Fethiye,TR,2022-03-10 11:25:56,36.6217,29.1164,55.27,56,69,9.46
227,Bogande,BF,2022-03-10 11:25:56,12.9714,-0.1436,97.88,3,7,7.63
228,Lavrentiya,RU,2022-03-10 11:17:38,65.5833,-171.0,3.2,76,2,16.22
229,Bambous Virieux,MU,2022-03-10 11:25:57,-20.3428,57.7575,86.25,74,40,9.22
230,Superior,US,2022-03-10 11:25:57,46.7208,-92.1041,0.48,73,0,9.22
231,Pacific Grove,US,2022-03-10 11:25:58,36.6177,-121.9166,51.91,85,100,4.61
232,Sao Filipe,CV,2022-03-10 11:25:58,14.8961,-24.4956,71.24,67,11,13.65
233,Bollnas,SE,2022-03-10 11:25:58,61.3482,16.3946,41.04,67,93,12.64
234,Madimba,TZ,2022-03-10 11:25:59,-10.4,40.3333,81.05,85,100,8.68
235,Marathon,US,2022-03-10 11:25:59,44.9,-89.7668,6.33,62,0,8.05
236,Skjervoy,NO,2022-03-10 11:22:14,70.0311,20.9714,42.39,67,100,11.65
237,Dwarka,IN,2022-03-10 11:26:00,22.2394,68.9678,83.55,45,0,12.8
238,Sorong,ID,2022-03-10 11:26:00,-0.8833,131.25,82.47,77,90,8.93
239,Atar,MR,2022-03-10 11:19:23,20.5169,-13.0499,84.47,9,0,18.28
240,San Lorenzo De El Escorial,ES,2022-03-10 11:26:01,40.5914,-4.1474,53.26,72,77,7.99
241,Juba,SS,2022-03-10 11:26:01,4.8517,31.5825,102.72,16,100,4.72
242,Preston,GB,2022-03-10 11:26:02,53.7667,-2.7167,54.32,75,40,13.8
243,Sitka,US,2022-03-10 11:16:26,57.0531,-135.33,42.69,49,100,10.36
244,Port Hedland,AU,2022-03-10 11:26:03,-20.3167,118.5667,86.05,74,4,6.91
245,Entre Rios,BR,2022-03-10 11:26:03,-11.9419,-38.0844,79.99,73,100,4.52
246,Puerto Escondido,MX,2022-03-10 11:26:03,15.85,-97.0667,74.68,64,0,4.81
247,Kitimat,CA,2022-03-10 11:26:04,54.0524,-128.6534,35.91,69,100,2.13
248,Vardo,NO,2022-03-10 11:26:04,70.3705,31.1107,24.78,86,88,39.12
249,Port Lincoln,AU,2022-03-10 11:26:05,-34.7333,135.8667,62.42,72,82,13.42
250,Andenes,NO,2022-03-10 11:26:05,69.3143,16.1194,39.18,81,40,24.16
251,Severo-Kurilsk,RU,2022-03-10 11:26:06,50.6789,156.125,28.72,94,100,16.96
252,Shimoda,JP,2022-03-10 11:26:06,34.6667,138.95,47.1,71,53,2.82
253,Salalah,OM,2022-03-10 11:17:46,17.0151,54.0924,84.29,45,0,6.91
254,Vilyuysk,RU,2022-03-10 11:26:07,63.7553,121.6247,-16.15,100,52,1.28
255,Tiksi,RU,2022-03-10 11:19:14,71.6872,128.8694,-21.42,100,92,1.07
256,Santa Cruz De La Palma,ES,2022-03-10 11:26:07,28.6835,-17.7642,68.14,56,20,8.05
257,Longyearbyen,SJ,2022-03-10 11:19:22,78.2186,15.6401,28.24,93,75,5.75
258,Awbari,LY,2022-03-10 11:26:08,26.5921,12.7805,63.25,30,7,12.77
259,Rawson,AR,2022-03-10 11:26:08,-43.3002,-65.1023,59.72,52,94,11.27
260,Chumikan,RU,2022-03-10 11:16:17,54.7183,135.315,16.52,83,100,15.77
261,Rujewa,TZ,2022-03-10 11:26:09,-8.7,34.3833,79.93,69,84,3.33
262,Tabas,IR,2022-03-10 11:26:09,33.5959,56.9244,87.73,14,71,17.67
263,Salina,US,2022-03-10 11:26:10,38.8403,-97.6114,18.3,93,100,14.97
264,Marawi,PH,2022-03-10 11:26:10,7.9986,124.2928,71.26,95,100,1.61
265,Sangar,RU,2022-03-10 11:26:11,63.9242,127.4739,-14.03,100,80,2.8
266,Bom Jesus Do Galho,BR,2022-03-10 11:26:11,-19.8289,-42.3161,73.99,87,12,1.43
267,Shingu,JP,2022-03-10 11:26:11,33.7333,135.9833,47.01,68,20,6.58
268,Adre,TD,2022-03-10 11:26:12,13.4667,22.2,99.05,7,8,18.21
269,Kidal,ML,2022-03-10 11:27:12,18.4411,1.4078,86.7,10,66,18.75
270,Guerrero Negro,MX,2022-03-10 11:27:13,27.9769,-114.0611,55.98,71,0,8.39
271,Coquimbo,CL,2022-03-10 11:26:30,-29.9533,-71.3436,55.13,100,75,1.14
272,San Patricio,US,2022-03-10 11:19:11,28.017,-97.5169,58.86,90,0,6.29
273,Zeya,RU,2022-03-10 11:27:14,53.75,127.2667,23.76,82,100,10.25
274,Mayo,US,2022-03-10 11:27:14,38.8876,-76.5119,37.98,95,0,1.01
275,Gubkinskiy,RU,2022-03-10 11:27:14,64.434,76.5026,2.71,93,100,17.27
276,Namatanai,PG,2022-03-10 11:23:13,-3.6667,152.4333,79.86,76,89,2.3
277,San Pedro,PH,2022-03-10 11:27:15,14.35,121.0167,83.43,69,40,6.91
278,Arraial Do Cabo,BR,2022-03-10 11:27:15,-22.9661,-42.0278,80.46,74,0,14.97
279,Buala,SB,2022-03-10 11:27:16,-8.145,159.5921,80.2,80,90,2.64
280,Huasahuasi,PE,2022-03-10 11:27:16,-11.3167,-75.6167,38.44,86,98,0.25
281,Uray,RU,2022-03-10 11:27:17,60.1247,64.7758,2.95,84,67,4.34
282,Christchurch,NZ,2022-03-10 11:16:26,-43.5333,172.6333,62.94,85,100,10.36
283,Ilulissat,GL,2022-03-10 11:27:17,69.2167,-51.1,-17.45,84,48,6.38
284,Vestmannaeyjar,IS,2022-03-10 11:17:44,63.4427,-20.2734,45.59,81,100,25.32
285,Maneadero,MX,2022-03-10 11:27:18,31.7167,-116.5667,50.85,83,5,3.27
286,Ahipara,NZ,2022-03-10 11:27:18,-35.1667,173.1667,62.33,86,2,7.23
287,Jalu,LY,2022-03-10 11:27:19,29.0331,21.5482,58.86,42,36,24.09
288,Chuy,UY,2022-03-10 11:27:19,-33.6971,-53.4616,70.11,89,100,7.87
289,Ledyard,US,2022-03-10 11:27:20,41.4398,-72.0142,32.09,95,0,3.44
290,Meulaboh,ID,2022-03-10 11:27:20,4.1363,96.1285,79.43,86,80,8.9
291,Slave Lake,CA,2022-03-10 11:27:20,55.2834,-114.769,8.58,72,20,16.11
292,Aklavik,CA,2022-03-10 11:27:21,68.2191,-135.0107,-14.08,98,100,5.7
293,Novobiryusinskiy,RU,2022-03-10 11:27:21,56.9578,97.7076,7.43,91,100,2.66
294,Kudahuvadhoo,MV,2022-03-10 11:27:22,2.6708,72.8944,82.6,68,10,4.25
295,Kutum,SD,2022-03-10 11:25:13,14.2,24.6667,92.23,8,27,12.3
296,Warri,NG,2022-03-10 11:26:35,5.5167,5.75,91.04,56,86,5.28
297,Zhigansk,RU,2022-03-10 11:27:23,66.7697,123.3711,-14.87,98,100,4.72
298,Nadym,RU,2022-03-10 11:26:38,65.5333,72.5167,0.07,87,100,11.18
299,Whitianga,NZ,2022-03-10 11:23:10,-36.8333,175.7,64.98,76,8,9.42
300,Chernyshevskiy,RU,2022-03-10 11:27:24,63.0128,112.4714,-4.76,89,100,5.21
301,Sayat,TM,2022-03-10 11:27:24,38.7839,63.8803,73.27,30,83,29.59
302,Richards Bay,ZA,2022-03-10 11:27:25,-28.783,32.0377,89.83,50,47,11.32
303,Lumut,MY,2022-03-10 11:27:25,4.2323,100.6298,86.02,74,20,3.44
304,Ponta Delgada,PT,2022-03-10 11:27:25,37.7333,-25.6667,63.5,77,40,26.46
305,Diamantino,BR,2022-03-10 11:27:26,-14.4086,-56.4461,72.07,97,100,3.6
306,Marabba,SD,2022-03-10 11:27:26,12.35,32.1833,105.22,8,100,11.74
307,Rundu,NA,2022-03-10 11:27:27,-17.9333,19.7667,79.21,60,99,11.7
308,Manavalakurichi,IN,2022-03-10 11:27:27,8.1333,77.3,86.05,55,19,3.91
309,Mineral Wells,US,2022-03-10 11:27:28,32.8085,-98.1128,41.34,70,0,10.36
310,Flin Flon,CA,2022-03-10 11:15:15,54.7682,-101.865,-0.18,96,100,7.4
311,North Platte,US,2022-03-10 11:27:28,41.1239,-100.7654,12.11,66,100,3.0
312,Sur,OM,2022-03-10 11:27:29,22.5667,59.5289,84.42,45,0,6.8
313,Nome,US,2022-03-10 11:27:29,64.5011,-165.4064,19.47,73,0,32.21
314,Ayagoz,KZ,2022-03-10 11:27:29,47.9714,80.4392,31.64,98,100,11.77
315,Huancavelica,PE,2022-03-10 11:28:30,-12.7667,-74.9833,37.72,89,100,2.46
316,San Carlos De Bariloche,AR,2022-03-10 11:27:20,-41.1456,-71.3082,35.35,87,20,4.61
317,Faanui,PF,2022-03-10 11:28:30,-16.4833,-151.75,80.64,72,99,12.64
318,Inhambane,MZ,2022-03-10 11:28:31,-23.865,35.3833,86.74,52,1,13.62
319,Naifaru,MV,2022-03-10 11:28:31,5.4444,73.3657,83.14,68,2,7.65
320,Ndele,CF,2022-03-10 11:28:32,8.4109,20.6473,108.39,14,99,3.74
321,Otradnoye,RU,2022-03-10 11:28:32,59.7775,30.8181,31.03,71,16,6.96
322,Tongliao,CN,2022-03-10 11:28:33,43.6125,122.2653,38.19,42,1,9.08
323,Abu Samrah,SY,2022-03-10 11:28:33,35.3029,37.1841,58.37,44,15,23.55
324,Pevek,RU,2022-03-10 11:19:17,69.7008,170.3133,15.94,61,6,14.07
325,Quatre Cocos,MU,2022-03-10 11:28:34,-20.2078,57.7625,86.11,77,22,11.41
326,Saint George,US,2022-03-10 11:28:34,37.1041,-113.5841,48.63,49,100,8.05
327,Gao,ML,2022-03-10 11:28:34,16.6362,1.637,90.61,8,41,13.2
328,Bereda,ES,2022-03-10 11:28:35,43.2686,-7.5406,49.14,100,83,4.5
329,Vao,NC,2022-03-10 11:28:35,-22.6667,167.4833,79.61,78,99,12.82
330,Oriximina,BR,2022-03-10 11:28:36,-1.7656,-55.8661,72.09,96,100,2.35
331,Naze,JP,2022-03-10 11:28:36,28.3667,129.4833,58.19,59,100,8.88
332,Armidale,AU,2022-03-10 11:28:36,-30.5167,151.65,55.85,97,70,8.16
333,Chapais,CA,2022-03-10 11:28:37,49.7834,-74.8492,15.58,93,100,9.64
334,Carai,BR,2022-03-10 11:28:37,-17.1889,-41.6947,66.99,93,84,3.36
335,Nanortalik,GL,2022-03-10 11:28:37,60.1432,-45.2371,9.48,74,4,11.21
336,Sulina,RO,2022-03-10 11:28:38,45.1559,29.6536,31.53,60,99,19.75
337,Dalhousie,IN,2022-03-10 11:28:38,32.5333,75.9833,59.67,40,3,5.21
338,Kalianget,ID,2022-03-10 11:28:39,-7.05,113.9333,79.92,84,87,5.5
339,Torrington,US,2022-03-10 11:28:39,41.8007,-73.1212,29.25,94,92,2.48
340,Siauliai,LT,2022-03-10 11:28:40,55.9333,23.3167,28.42,37,0,8.05
341,Koundara,GN,2022-03-10 11:28:40,12.4833,-13.3,95.41,9,85,4.18
342,Itarema,BR,2022-03-10 11:28:41,-2.9248,-39.9167,80.82,81,96,10.49
343,Kasongo-Lunda,CD,2022-03-10 11:28:41,-6.4667,16.8167,90.43,48,67,0.29
344,Cap Malheureux,MU,2022-03-10 11:28:41,-19.9842,57.6142,86.47,74,8,7.0
345,Najran,SA,2022-03-10 11:28:42,17.4924,44.1277,95.65,8,11,15.84
346,Andros Town,BS,2022-03-10 11:25:15,24.7,-77.7667,75.16,82,0,14.14
347,Iskateley,RU,2022-03-10 11:28:43,67.6803,53.1512,8.47,90,84,17.67
348,Chaoyang,CN,2022-03-10 11:28:43,41.5703,120.4586,48.74,35,93,7.2
349,Qasigiannguit,GL,2022-03-10 11:28:44,68.8193,-51.1922,-18.2,89,56,6.26
350,Pasighat,IN,2022-03-10 11:19:21,28.0667,95.3333,84.61,31,0,1.99
351,Levittown,US,2022-03-10 11:28:12,40.1551,-74.8288,34.0,89,40,3.44
352,Yankton,US,2022-03-10 11:28:44,42.8711,-97.3973,11.12,85,0,0.0
353,Arman,RU,2022-03-10 11:28:45,59.7,150.1667,15.82,87,83,8.12
354,Palmer,US,2022-03-10 11:28:45,42.1584,-72.3287,28.81,80,95,1.68
355,Santa Maria,BR,2022-03-10 11:28:46,-29.6842,-53.8069,69.1,100,75,3.44
356,Matara,LK,2022-03-10 11:28:46,5.9485,80.5353,83.61,70,32,5.28
357,Lazdijai,LT,2022-03-10 11:28:46,54.2333,23.5167,29.25,40,1,8.81
358,Maniitsoq,GL,2022-03-10 11:28:47,65.4167,-52.9,-9.69,91,87,5.32
359,Alappuzha,IN,2022-03-10 11:27:13,9.49,76.3264,84.43,67,20,15.28
360,Portland,US,2022-03-10 11:26:52,45.5234,-122.6762,35.53,75,0,7.0
361,Kota Belud,MY,2022-03-10 11:29:48,6.351,116.4305,77.47,91,97,5.1
362,Sao Felix Do Xingu,BR,2022-03-10 11:29:39,-6.6447,-51.995,71.62,96,100,0.58
363,Brewster,US,2022-03-10 11:26:47,41.3973,-73.6171,31.98,96,100,1.07
364,Port-Gentil,GA,2022-03-10 11:29:48,-0.7193,8.7815,82.36,83,40,9.22
365,Baijiantan,CN,2022-03-10 11:29:49,45.6333,85.1833,40.28,81,100,9.53
366,Serenje,ZM,2022-03-10 11:29:49,-13.2325,30.2352,72.54,80,93,5.37
367,Komsomolskiy,UZ,2022-03-10 11:29:50,40.4272,71.7189,57.92,47,96,4.61
368,Cabo San Lucas,MX,2022-03-10 11:29:35,22.8909,-109.9124,63.52,65,31,8.55
369,Ubinskoye,RU,2022-03-10 11:29:50,55.3068,79.6802,10.33,87,100,8.93
370,Kavaratti,IN,2022-03-10 11:29:51,10.5669,72.642,82.63,68,1,5.08
371,Poum,NC,2022-03-10 11:29:51,-20.2333,164.0167,81.79,72,25,16.04
372,Natal,BR,2022-03-10 11:25:28,-5.795,-35.2094,83.05,83,40,10.36
373,Yulara,AU,2022-03-10 11:29:52,-25.2406,130.9889,82.24,20,1,5.75
374,Birin,NP,2022-03-10 11:29:52,26.8865,88.0718,71.42,24,1,5.86
375,Wattegama,LK,2022-03-10 11:29:53,6.7989,81.4808,88.21,51,46,11.88
376,Comodoro Rivadavia,AR,2022-03-10 11:29:53,-45.8667,-67.5,58.86,51,0,11.5
377,Prachuap Khiri Khan,TH,2022-03-10 11:29:53,12.2167,99.75,80.56,71,18,6.62
378,Raduzhnyy,RU,2022-03-10 11:29:54,62.0961,77.475,-3.05,92,93,10.02
379,Burnie,AU,2022-03-10 11:29:54,-41.0667,145.9167,58.91,76,3,9.04
380,San Jose,US,2022-03-10 11:27:02,37.3394,-121.895,48.92,84,0,1.99
381,Darhan,MN,2022-03-10 11:27:14,49.4867,105.9228,21.76,84,33,1.63
382,Vila Franca Do Campo,PT,2022-03-10 11:29:55,37.7167,-25.4333,63.19,71,94,20.24
383,Sharjah,AE,2022-03-10 11:29:55,25.3573,55.4033,91.69,22,0,12.66
384,Saint Anthony,US,2022-03-10 11:29:56,45.0205,-93.218,8.92,79,0,4.61
385,Manaure,CO,2022-03-10 11:29:56,11.7751,-72.4445,76.24,83,3,10.02
386,Amapa,BR,2022-03-10 11:29:57,1.0,-52.0,71.83,100,100,1.72
387,Hasaki,JP,2022-03-10 11:29:57,35.7333,140.8333,43.2,56,41,5.88
388,Coromandel,BR,2022-03-10 11:29:57,-18.4733,-47.2003,70.27,72,30,4.5
389,Itacoatiara,BR,2022-03-10 11:29:58,-3.1431,-58.4442,72.45,98,100,1.05
390,Mananjary,MG,2022-03-10 11:29:59,-21.2167,48.3333,83.75,70,86,7.78
391,Coahuayana,MX,2022-03-10 11:29:59,18.7333,-103.6833,63.39,77,42,2.89
392,Kendari,ID,2022-03-10 11:29:59,-3.945,122.4989,79.05,83,60,2.75
393,Mokhsogollokh,RU,2022-03-10 11:30:00,61.4681,128.9203,-5.12,100,95,1.54
394,Dunkwa,GH,2022-03-10 11:30:01,5.9656,-1.78,94.35,45,100,3.78
395,Aswan,EG,2022-03-10 11:30:02,24.0934,32.907,81.75,18,18,17.69
396,Husavik,IS,2022-03-10 11:30:03,66.0449,-17.3389,29.14,77,100,9.01
397,Sabha,LY,2022-03-10 11:30:04,27.0377,14.4283,63.16,26,3,12.95
398,Lowestoft,GB,2022-03-10 11:30:06,52.4752,1.7516,59.95,79,18,16.78
399,Monrovia,LR,2022-03-10 11:30:07,6.3005,-10.7969,85.57,71,93,9.57
400,Pinawa,CA,2022-03-10 11:30:08,50.1489,-95.8811,-14.94,99,85,5.28
401,Naryan-Mar,RU,2022-03-10 11:30:09,67.6713,53.087,9.68,91,85,18.14
402,Tautira,PF,2022-03-10 11:30:10,-17.7333,-149.15,79.9,77,80,11.72
403,Yamada,JP,2022-03-10 11:30:11,39.4667,141.95,36.23,79,7,5.41
404,Pangnirtung,CA,2022-03-10 11:30:11,66.1451,-65.7125,-16.29,85,90,4.34
405,Margate,GB,2022-03-10 11:31:12,51.3813,1.3862,54.3,78,46,13.27
406,Makubetsu,JP,2022-03-10 11:31:13,45.3714,141.8211,37.62,80,19,20.78
407,Kruisfontein,ZA,2022-03-10 11:31:13,-34.0033,24.7314,77.88,57,97,13.0
408,Podosinovets,RU,2022-03-10 11:31:14,60.2776,47.0659,18.97,81,100,4.29
409,Klaksvik,FO,2022-03-10 11:31:14,62.2266,-6.589,43.72,80,100,28.21
410,Vangaindrano,MG,2022-03-10 11:31:14,-23.35,47.6,84.06,71,32,8.28
411,Rangapara,IN,2022-03-10 11:31:15,26.8167,92.65,82.44,20,0,2.8
412,Cepu,ID,2022-03-10 11:31:15,-7.1475,111.5906,76.17,93,99,5.1
413,San Andres,CO,2022-03-10 11:31:16,12.5847,-81.7006,80.62,74,20,6.91
414,Raver,IN,2022-03-10 11:31:16,21.25,76.0333,87.24,27,41,11.79
415,Alekseyevsk,RU,2022-03-10 11:31:17,57.8406,108.3492,3.34,97,100,3.74
416,Port Hardy,CA,2022-03-10 11:31:17,50.6996,-127.4199,39.2,93,40,5.75
417,Kununurra,AU,2022-03-10 11:31:18,-15.7667,128.7333,85.98,66,83,0.0
418,Laguna,US,2022-03-10 11:31:18,38.421,-121.4238,53.73,59,0,12.66
419,Lasa,IT,2022-03-10 11:31:18,46.6166,10.7002,49.08,51,0,2.62
420,Puerto Carreno,CO,2022-03-10 11:29:12,6.189,-67.4859,80.58,74,90,5.75
421,Thongwa,MM,2022-03-10 11:31:19,16.7619,96.5278,93.36,56,82,11.88
422,Bangolo,CI,2022-03-10 11:31:19,7.0069,-7.475,100.26,27,70,2.37
423,Cayenne,GF,2022-03-10 11:31:20,4.9333,-52.3333,82.09,56,75,3.0
424,Mudon,MM,2022-03-10 11:31:20,16.2578,97.7164,83.64,69,70,9.53
425,Anadyr,RU,2022-03-10 11:31:21,64.75,177.4833,25.3,58,0,33.55
426,Dingle,PH,2022-03-10 11:31:21,10.9995,122.6711,76.48,93,100,7.81
427,Elko,US,2022-03-10 11:30:18,41.0002,-115.5012,17.62,72,76,10.0
428,Petropavlovsk-Kamchatskiy,RU,2022-03-10 11:31:22,53.0452,158.6483,34.39,55,75,17.9
429,Puerto Santander,CO,2022-03-10 11:31:22,8.3636,-72.4063,76.41,89,34,2.48
430,Amalner,IN,2022-03-10 11:31:23,21.05,75.0667,87.57,30,11,7.7
431,Miri,MY,2022-03-10 11:31:23,4.4148,114.0089,82.54,78,40,3.44
432,Sapa,PH,2022-03-10 11:31:24,5.1544,120.3241,80.55,77,100,0.96
433,Eenhana,NA,2022-03-10 11:31:24,-17.4667,16.3333,91.67,27,9,8.14
434,Viesca,MX,2022-03-10 11:31:25,25.35,-102.8,54.28,20,65,5.55
435,Iqaluit,CA,2022-03-10 11:31:25,63.7506,-68.5145,-11.47,77,100,0.0
436,Majalaya,ID,2022-03-10 11:31:26,-7.3378,106.6069,78.39,84,93,3.33
437,Saint-Joseph,RE,2022-03-10 11:31:27,-21.3667,55.6167,86.38,80,35,10.42
438,Beringovskiy,RU,2022-03-10 11:31:27,63.05,179.3167,6.62,85,20,15.01
439,Mason City,US,2022-03-10 11:31:28,43.1536,-93.201,13.98,77,75,0.0
440,Havelock,US,2022-03-10 11:31:28,34.8791,-76.9013,49.98,89,100,5.99
441,Fayetteville,US,2022-03-10 11:31:28,35.0527,-78.8784,47.88,90,100,8.05
442,Parfenyevo,RU,2022-03-10 11:31:29,58.484,43.4088,22.62,81,95,1.48
443,Batagay,RU,2022-03-10 11:31:29,67.6333,134.6333,-7.46,95,100,1.88
444,Ibra,OM,2022-03-10 11:31:30,22.6906,58.5334,95.36,13,0,10.92
445,Bubaque,GW,2022-03-10 11:31:30,11.2833,-15.8333,76.98,50,42,7.92
446,Tiznit,MA,2022-03-10 11:31:31,29.5833,-9.5,68.43,30,0,7.14
447,Sergeyevka,KZ,2022-03-10 11:31:31,53.88,67.4158,10.62,91,100,11.59
448,Soe,ID,2022-03-10 11:31:31,-9.8607,124.284,67.66,91,77,3.96
449,Ilebo,CD,2022-03-10 11:31:32,-4.3167,20.5833,94.78,42,90,3.42
450,Atkinson,US,2022-03-10 11:31:32,42.8384,-71.147,29.28,90,0,4.61
451,Olafsvik,IS,2022-03-10 11:32:33,64.8945,-23.7142,33.6,97,98,30.29
452,Loum,CM,2022-03-10 11:32:33,4.7182,9.7351,90.63,53,90,4.61
453,Gwanda,ZW,2022-03-10 11:32:34,-20.9333,29.0,88.43,24,2,10.11
454,Sibolga,ID,2022-03-10 11:32:34,1.7427,98.7792,77.97,88,98,1.92
455,Kampot,KH,2022-03-10 11:32:34,10.6167,104.1833,82.45,73,80,5.41
456,Berdigestyakh,RU,2022-03-10 11:32:35,62.0989,126.6992,-7.74,100,100,0.58
457,Pontes E Lacerda,BR,2022-03-10 11:32:35,-15.2261,-59.3353,73.94,94,100,1.52
458,Senneterre,CA,2022-03-10 11:32:36,48.3835,-77.2328,11.88,95,100,5.84
459,Corinto,GR,2022-03-10 11:32:36,37.9407,22.9573,47.41,58,98,1.01
460,Ust-Tarka,RU,2022-03-10 11:32:37,55.5672,75.705,6.55,91,100,5.66
461,Uralets,RU,2022-03-10 11:32:37,57.6614,59.6497,11.37,85,100,7.9
462,Leshukonskoye,RU,2022-03-10 11:32:37,64.8989,45.7622,23.14,91,100,8.93
463,Terra Rica,BR,2022-03-10 11:32:38,-22.7094,-52.6169,77.43,80,43,7.11
464,Dharur,IN,2022-03-10 11:32:38,18.8167,76.1167,83.77,21,76,5.01
465,Ostrovnoy,RU,2022-03-10 11:32:39,68.0531,39.5131,22.28,89,100,20.0
466,Kingori,TZ,2022-03-10 11:32:39,-3.2833,36.9833,86.38,37,20,13.8
467,Half Moon Bay,US,2022-03-10 11:32:01,37.4636,-122.4286,51.01,88,0,11.5
468,Ucluelet,CA,2022-03-10 11:32:40,48.9329,-125.5528,37.51,70,38,1.95
469,Palora,EC,2022-03-10 11:32:40,-1.7,-77.9333,68.11,96,100,2.75
470,Noumea,NC,2022-03-10 11:31:50,-22.2763,166.4572,81.0,99,82,2.73
471,Carmen,MX,2022-03-10 11:32:10,18.6333,-91.8333,75.74,89,14,3.49
472,Thurso,GB,2022-03-10 11:32:41,58.5927,-3.5259,46.65,83,100,18.12
473,Mier,MX,2022-03-10 11:32:41,26.4333,-99.15,49.98,86,10,7.43
474,Karaman,TR,2022-03-10 11:32:42,37.0833,33.25,29.64,93,100,11.83
475,Palu,ID,2022-03-10 11:32:42,-0.8917,119.8707,78.13,94,54,0.83
476,Betsiamites,CA,2022-03-10 11:32:42,48.9413,-68.646,28.8,94,86,11.03
477,Rio Gallegos,AR,2022-03-10 11:32:43,-51.6226,-69.2181,42.85,87,0,11.5
478,Ust-Maya,RU,2022-03-10 11:32:43,60.4167,134.5333,-11.78,100,72,1.36
479,Deputatskiy,RU,2022-03-10 11:32:44,69.3,139.9,-8.1,92,100,1.86
480,Lopatino,RU,2022-03-10 11:32:44,52.6195,45.8118,22.59,87,100,19.08
481,Saint-Junien,FR,2022-03-10 11:32:45,45.8833,0.9,54.18,78,97,5.84
482,Hamilton,US,2022-03-10 11:32:45,39.1834,-84.5333,34.05,87,0,6.91
483,Kargasok,RU,2022-03-10 11:32:45,59.0556,80.8572,-8.57,95,75,7.05
484,Phan Thiet,VN,2022-03-10 11:32:46,10.9333,108.1,75.02,82,87,9.1
485,Ostersund,SE,2022-03-10 11:30:49,63.1792,14.6357,38.61,51,0,12.66
486,George,ZA,2022-03-10 11:32:46,-33.963,22.4617,74.75,69,75,8.05
487,Madras,IN,2022-03-10 11:32:34,13.0878,80.2785,89.58,71,20,9.22
488,Nabire,ID,2022-03-10 11:32:47,-3.3667,135.4833,78.75,82,100,0.69
489,Cochrane,CA,2022-03-10 11:30:18,51.1834,-114.4687,20.44,42,100,9.22
490,Lima,PE,2022-03-10 11:31:43,-12.0432,-77.0282,67.14,40,100,5.75
491,Tezu,IN,2022-03-10 11:32:48,27.9167,96.1667,77.85,29,0,4.07
492,Riviere-Au-Renard,CA,2022-03-10 11:32:48,48.9957,-64.3971,16.09,92,87,8.16
493,Komyshuvakha,UA,2022-03-10 11:32:49,47.7176,35.5288,27.12,65,100,16.33
494,Willowmore,ZA,2022-03-10 11:32:49,-33.2926,23.4895,85.33,34,9,7.74
495,Kouango,CF,2022-03-10 11:32:50,4.9934,19.9619,105.76,22,95,4.36
496,Namibe,AO,2022-03-10 11:32:50,-15.1961,12.1522,79.43,61,0,5.75
497,Yushala,RU,2022-03-10 11:32:51,57.0761,64.2601,9.39,79,100,6.62
498,Greystones,IE,2022-03-10 11:33:51,53.1408,-6.0631,48.94,74,84,11.61
499,Sri Aman,MY,2022-03-10 11:33:52,1.2376,111.4621,82.45,78,55,4.61
500,Soyo,AO,2022-03-10 11:33:52,-6.1349,12.3689,84.02,68,98,8.63
501,Ciego De Avila,CU,2022-03-10 11:33:52,21.84,-78.7619,70.52,93,0,4.05
502,Fez,MA,2022-03-10 11:33:53,34.0372,-4.9998,62.85,63,40,3.44
503,Taft,IR,2022-03-10 11:33:54,31.7471,54.2088,80.55,17,75,2.3
504,Svetlyy,RU,2022-03-10 11:33:54,54.675,20.1347,35.96,32,5,10.0
505,Berlevag,NO,2022-03-10 11:33:55,70.8578,29.0864,33.8,64,99,35.68
506,Flinders,AU,2022-03-10 11:33:55,-34.5833,150.8552,66.18,78,53,5.99
507,Bachatskiy,RU,2022-03-10 11:33:56,54.2927,86.1285,11.7,91,99,8.46
508,Kendallville,US,2022-03-10 11:33:56,41.4414,-85.265,27.82,95,100,0.0
509,Geraldton,AU,2022-03-10 11:31:28,-28.7667,114.6,82.81,42,18,13.8
510,Almas,RO,2022-03-10 11:33:57,46.2833,22.2333,39.34,46,60,4.09
511,Hambantota,LK,2022-03-10 11:33:57,6.1241,81.1185,89.94,66,20,9.22
512,Viedma,AR,2022-03-10 11:33:58,-40.8135,-62.9967,63.72,50,53,12.82
513,Krasnoselkup,RU,2022-03-10 11:33:58,65.7,82.4667,-3.28,98,100,3.89
514,Port Augusta,AU,2022-03-10 11:33:58,-32.5,137.7667,67.78,56,54,11.56
515,East Moline,US,2022-03-10 11:33:59,41.5009,-90.4443,19.65,66,40,13.8
516,Aykhal,RU,2022-03-10 11:33:59,66.0,111.5,1.2,98,100,5.3
517,Jatai,BR,2022-03-10 11:34:00,-17.8814,-51.7144,77.65,64,69,2.37
518,Bathsheba,BB,2022-03-10 11:34:01,13.2167,-59.5167,77.61,83,75,23.02
519,Bam,IR,2022-03-10 11:34:01,29.106,58.357,86.5,14,20,4.21
520,Glens Falls,US,2022-03-10 11:30:13,43.3095,-73.644,28.94,95,100,0.0
521,Harlingen,US,2022-03-10 11:31:26,26.1906,-97.6961,60.71,96,100,4.61
522,Neiafu,TO,2022-03-10 11:34:02,-18.65,-173.9833,81.25,75,96,10.92
523,Aasiaat,GL,2022-03-10 11:34:02,68.7098,-52.8699,-11.52,100,100,5.5
524,Westport,US,2022-03-10 11:34:03,41.1415,-73.3579,33.62,89,100,3.44
525,Mukhen,RU,2022-03-10 11:34:03,48.1,136.1,36.73,84,100,6.96
526,Mastic Beach,US,2022-03-10 11:34:04,40.7668,-72.8521,33.78,88,0,0.0
527,Wilmington,US,2022-03-10 11:34:04,34.2257,-77.9447,49.95,87,100,8.05
528,Harboore,DK,2022-03-10 11:34:05,56.6175,8.1807,49.17,61,22,14.23
529,Wanaka,NZ,2022-03-10 11:34:05,-44.7,169.15,55.4,89,89,6.42
530,Broken Hill,AU,2022-03-10 11:32:37,-31.95,141.4333,67.71,26,31,10.36
531,Ati,TD,2022-03-10 11:34:06,13.2154,18.3353,106.14,6,5,18.34
532,Bonavista,CA,2022-03-10 11:34:06,48.6499,-53.1147,23.36,72,71,12.15
533,Iralaya,HN,2022-03-10 11:34:07,15.0,-83.2333,76.28,80,6,8.46
534,Kalaleh,IR,2022-03-10 11:34:07,37.3807,55.4916,67.6,64,75,4.61
535,Deogarh,IN,2022-03-10 11:34:08,21.5333,84.7333,89.55,15,0,3.71
536,Koumac,NC,2022-03-10 11:34:08,-20.5667,164.2833,79.23,77,16,9.86
537,Bitung,ID,2022-03-10 11:34:09,1.4451,125.1824,81.45,84,33,4.7
538,Lazaro Cardenas,MX,2022-03-10 11:30:03,17.9583,-102.2,66.88,76,1,4.09
539,Jagdalpur,IN,2022-03-10 11:34:09,19.0667,82.0333,90.07,14,16,4.29
540,Qui Nhon,VN,2022-03-10 11:34:10,13.7667,109.2333,71.98,83,41,10.2
541,Auki,SB,2022-03-10 11:34:10,-8.7676,160.7034,77.92,87,89,2.71
542,Luderitz,NA,2022-03-10 11:34:11,-26.6481,15.1594,78.84,58,0,17.29
543,Beeville,US,2022-03-10 11:34:11,28.4008,-97.7483,47.75,93,0,4.61
544,Bukoba,TZ,2022-03-10 11:34:12,-1.3317,31.8122,80.58,69,20,11.5
545,Contai,IN,2022-03-10 11:34:13,21.7786,87.7536,78.57,48,8,7.96
546,Lagoa,PT,2022-03-10 11:35:13,39.05,-27.9833,55.6,65,100,31.79
547,Vila Velha,BR,2022-03-10 11:32:44,-20.3297,-40.2925,75.15,83,40,3.44
548,Kisangani,CD,2022-03-10 11:35:14,0.5167,25.2,99.39,30,86,2.66
549,Dunedin,NZ,2022-03-10 11:35:14,-45.8742,170.5036,62.8,91,100,5.01
550,Matagami,CA,2022-03-10 11:35:15,49.7502,-77.6328,5.11,78,100,6.91
551,Dongning,CN,2022-03-10 11:35:15,44.0622,131.1207,36.48,83,72,5.53
552,Gidam,IN,2022-03-10 11:35:15,18.9833,81.4,92.37,16,6,2.17
553,Harper,LR,2022-03-10 11:35:16,4.375,-7.7169,87.13,69,50,7.83
554,Iwata,JP,2022-03-10 11:35:16,34.7,137.85,53.02,60,21,1.01
555,Vestmanna,FO,2022-03-10 11:35:17,62.1564,-7.1664,41.92,75,75,25.32
556,Rorvik,NO,2022-03-10 11:35:17,64.8621,11.2373,41.11,100,75,19.57
557,Suluq,LY,2022-03-10 11:35:18,31.6682,20.2521,55.51,51,82,25.72
558,Azangaro,PE,2022-03-10 11:35:18,-14.9167,-70.2167,45.93,76,100,1.72
559,Mount Gambier,AU,2022-03-10 11:35:19,-37.8333,140.7667,53.51,82,1,9.22
560,Riyadh,SA,2022-03-10 11:35:19,24.6877,46.7219,98.74,7,6,14.27
561,Haikou,CN,2022-03-10 11:35:20,20.0458,110.3417,71.73,83,0,13.42
562,Tondano,ID,2022-03-10 11:35:21,1.3038,124.9112,73.49,96,55,1.81
563,Itoman,JP,2022-03-10 11:35:21,26.1247,127.6694,66.97,63,0,8.05
564,Jumla,NP,2022-03-10 11:35:21,29.2747,82.1838,48.9,67,99,5.32
565,Bucerias,MX,2022-03-10 11:35:22,20.75,-105.3333,62.98,90,30,3.44
566,Cancun,MX,2022-03-10 11:30:24,21.1743,-86.8466,78.73,78,40,14.97
567,Dongsheng,CN,2022-03-10 11:35:23,39.8161,109.9776,49.95,40,5,5.73
568,Kastamonu,TR,2022-03-10 11:35:23,41.5,33.6667,28.42,69,100,12.64
569,Mahajanga,MG,2022-03-10 11:35:24,-15.7167,46.3167,84.22,79,40,9.22
570,Okhotsk,RU,2022-03-10 11:35:24,59.3833,143.3,19.29,96,100,1.77
